{
  "type": "FeatureCollection",
  "name": "servicePointGlobal",
  "crs": {
    "type": "name",
    "properties": { "name": "urn:ogc:def:crs:OGC:1.3:CRS84" }
  },
  "features": [
    {
      "type": "Feature",
      "properties": {
        "fid": 1,
        "Type": "Gas Station",
        "Name": "Bull Gas Station"
      },
      "geometry": {
        "type": "Point",
        "coordinates": [34.662988739863771, 31.775372518434079]
      }
    },
    {
      "type": "Feature",
      "properties": {
        "fid": 2,
        "Type": "Parking Lot",
        "Name": "Parking Lot at Big Fashion"
      },
      "geometry": {
        "type": "Point",
        "coordinates": [34.663856434480081, 31.775544673159242]
      }
    },
    {
      "type": "Feature",
      "properties": {
        "fid": 3,
        "Type": "Gas Station",
        "Name": "Dor Alon gas station"
      },
      "geometry": {
        "type": "Point",
        "coordinates": [34.659483092681356, 31.779736712830253]
      }
    },
    {
      "type": "Feature",
      "properties": {
        "fid": 4,
        "Type": "Parking Lot",
        "Name": "Dirt parking lot near Sami Shimon College"
      },
      "geometry": {
        "type": "Point",
        "coordinates": [34.658804918251143, 31.808465394748271]
      }
    },
    {
      "type": "Feature",
      "properties": {
        "fid": 5,
        "Type": "Parking Lot",
        "Name": "Star Center Parking"
      },
      "geometry": {
        "type": "Point",
        "coordinates": [34.656740232798946, 31.809409072813658]
      }
    },
    {
      "type": "Feature",
      "properties": {
        "fid": 6,
        "Type": "Gas Station",
        "Name": "Star Center gas station"
      },
      "geometry": {
        "type": "Point",
        "coordinates": [34.658266577330146, 31.809519878530601]
      }
    },
    {
      "type": "Feature",
      "properties": {
        "fid": 7,
        "Type": "Parking Lot",
        "Name": "Sderot Hanasi Weizmann & Sderot Ben Gurion"
      },
      "geometry": {
        "type": "Point",
        "coordinates": [34.659984568147479, 31.80985125376073]
      }
    },
    {
      "type": "Feature",
      "properties": {
        "fid": 8,
        "Type": "Parking Lot",
        "Name": "Ashdod Tsemer"
      },
      "geometry": {
        "type": "Point",
        "coordinates": [34.659916660604992, 31.810352776309365]
      }
    },
    {
      "type": "Feature",
      "properties": { "fid": 9, "Type": "Parking Lot", "Name": "Osher Ad" },
      "geometry": {
        "type": "Point",
        "coordinates": [34.663154870273118, 31.81253314814461]
      }
    },
    {
      "type": "Feature",
      "properties": {
        "fid": 10,
        "Type": "Gas Station",
        "Name": "Mika - Bnei Brit gas station"
      },
      "geometry": {
        "type": "Point",
        "coordinates": [34.665119988538905, 31.813349063961557]
      }
    },
    {
      "type": "Feature",
      "properties": {
        "fid": 11,
        "Type": "Gas Station",
        "Name": "Sonol gas station City Quarter"
      },
      "geometry": {
        "type": "Point",
        "coordinates": [34.640180068460658, 31.790892537920627]
      }
    },
    {
      "type": "Feature",
      "properties": {
        "fid": 12,
        "Type": "Gas Station",
        "Name": "Sonol gas station Ad Halom"
      },
      "geometry": {
        "type": "Point",
        "coordinates": [34.664084048476987, 31.778544880450557]
      }
    },
    {
      "type": "Feature",
      "properties": {
        "fid": 13,
        "Type": "Gas Station",
        "Name": "Sonol Sderot Bnei Brit"
      },
      "geometry": {
        "type": "Point",
        "coordinates": [34.664495169140167, 31.811933625384977]
      }
    },
    {
      "type": "Feature",
      "properties": {
        "fid": 14,
        "Type": "Gas Station",
        "Name": "Sadesh gas station, Sderot Bnei Brit"
      },
      "geometry": {
        "type": "Point",
        "coordinates": [34.652910807464501, 31.796622836740987]
      }
    },
    {
      "type": "Feature",
      "properties": {
        "fid": 15,
        "Type": "Gas Station",
        "Name": "Ashdod-Rasko"
      },
      "geometry": {
        "type": "Point",
        "coordinates": [34.652679781804473, 31.796535816090561]
      }
    },
    {
      "type": "Feature",
      "properties": {
        "fid": 16,
        "Type": "Gas Station",
        "Name": "Dor Alon Ort"
      },
      "geometry": {
        "type": "Point",
        "coordinates": [34.648754445817175, 31.81351154724787]
      }
    },
    {
      "type": "Feature",
      "properties": { "fid": 17, "Type": "Gas Station", "Name": "Tapuz" },
      "geometry": {
        "type": "Point",
        "coordinates": [34.65680726524424, 31.811224410665826]
      }
    },
    {
      "type": "Feature",
      "properties": {
        "fid": 18,
        "Type": "Gas Station",
        "Name": "Dor Alon Gas Station No. 2403"
      },
      "geometry": {
        "type": "Point",
        "coordinates": [34.654529037201335, 31.812626772099204]
      }
    },
    {
      "type": "Feature",
      "properties": {
        "fid": 19,
        "Type": "Gas Station",
        "Name": "Herzl Gabriel Paz"
      },
      "geometry": {
        "type": "Point",
        "coordinates": [34.655515096723022, 31.814776676211519]
      }
    },
    {
      "type": "Feature",
      "properties": {
        "fid": 20,
        "Type": "Gas Station",
        "Name": "Paz Ashdod City"
      },
      "geometry": {
        "type": "Point",
        "coordinates": [34.665804139527552, 31.811076052698642]
      }
    },
    {
      "type": "Feature",
      "properties": {
        "fid": 21,
        "Type": "Gas Station",
        "Name": "Dor Alon - Rom"
      },
      "geometry": {
        "type": "Point",
        "coordinates": [34.666929602032738, 31.811967981669021]
      }
    },
    {
      "type": "Feature",
      "properties": { "fid": 22, "Type": "Gas Station", "Name": "Ten - Jambo" },
      "geometry": {
        "type": "Point",
        "coordinates": [34.661464795056325, 31.8198838642274]
      }
    },
    {
      "type": "Feature",
      "properties": { "fid": 23, "Type": "Parking Lot", "Name": "Parking Lot" },
      "geometry": {
        "type": "Point",
        "coordinates": [34.661630713484882, 31.820362132767457]
      }
    },
    {
      "type": "Feature",
      "properties": { "fid": 24, "Type": "Parking Lot", "Name": "Parking Lot" },
      "geometry": {
        "type": "Point",
        "coordinates": [34.662064936714089, 31.819050011379964]
      }
    },
    {
      "type": "Feature",
      "properties": {
        "fid": 25,
        "Type": "Parking Lot",
        "Name": "Dirt parking near 'Gan Hhair'"
      },
      "geometry": {
        "type": "Point",
        "coordinates": [34.637202375228064, 31.790482547834653]
      }
    },
    {
      "type": "Feature",
      "properties": {
        "fid": 26,
        "Type": "Parking Lot",
        "Name": "Parking The Haredi Center for Vocational Training"
      },
      "geometry": {
        "type": "Point",
        "coordinates": [34.662436678003395, 31.801053641453006]
      }
    },
    {
      "type": "Feature",
      "properties": { "fid": 27, "Type": "Parking Lot", "Name": "Rami Levy" },
      "geometry": {
        "type": "Point",
        "coordinates": [34.659938450525125, 31.814265808023052]
      }
    },
    {
      "type": "Feature",
      "properties": { "fid": 28, "Type": "Parking Lot", "Name": "Parking Lot" },
      "geometry": {
        "type": "Point",
        "coordinates": [34.65652872180636, 31.804193617145774]
      }
    },
    {
      "type": "Feature",
      "properties": {
        "fid": 29,
        "Type": "Parking Lot",
        "Name": "Riviera Beach parking lot"
      },
      "geometry": {
        "type": "Point",
        "coordinates": [34.619748736651466, 31.772700974698733]
      }
    },
    {
      "type": "Feature",
      "properties": { "fid": 30, "Type": "Parking Lot", "Name": "Hmitzpe" },
      "geometry": {
        "type": "Point",
        "coordinates": [34.625755753851195, 31.78355915328936]
      }
    },
    {
      "type": "Feature",
      "properties": {
        "fid": 31,
        "Type": "Parking Lot",
        "Name": "parking lot yod alefe beach"
      },
      "geometry": {
        "type": "Point",
        "coordinates": [34.627132456761672, 31.787644700133459]
      }
    },
    {
      "type": "Feature",
      "properties": {
        "fid": 32,
        "Type": "Parking Lot",
        "Name": "Separate beach parking lot"
      },
      "geometry": {
        "type": "Point",
        "coordinates": [34.628626422696556, 31.789356107076731]
      }
    },
    {
      "type": "Feature",
      "properties": {
        "fid": 33,
        "Type": "Parking Lot",
        "Name": "Ashdod Water Sports Center"
      },
      "geometry": {
        "type": "Point",
        "coordinates": [34.630648947338464, 31.796618522898704]
      }
    },
    {
      "type": "Feature",
      "properties": {
        "fid": 34,
        "Type": "Parking Lot",
        "Name": "HAKSHATOT  Beach Parking South"
      },
      "geometry": {
        "type": "Point",
        "coordinates": [34.632572060938806, 31.798421393922048]
      }
    },
    {
      "type": "Feature",
      "properties": {
        "fid": 35,
        "Type": "Parking Lot",
        "Name": "HAKSHATOT Beach Parking North"
      },
      "geometry": {
        "type": "Point",
        "coordinates": [34.634616638030089, 31.800669429615795]
      }
    },
    {
      "type": "Feature",
      "properties": {
        "fid": 36,
        "Type": "Parking Lot",
        "Name": "Oranim Beach parking lot"
      },
      "geometry": {
        "type": "Point",
        "coordinates": [34.636492846420673, 31.80533579216295]
      }
    },
    {
      "type": "Feature",
      "properties": {
        "fid": 37,
        "Type": "Parking Lot",
        "Name": "LIDO Beach parking lot"
      },
      "geometry": {
        "type": "Point",
        "coordinates": [34.637767162959072, 31.807724363346136]
      }
    },
    {
      "type": "Feature",
      "properties": {
        "fid": 38,
        "Type": "Parking Lot",
        "Name": "Blue Castle Market"
      },
      "geometry": {
        "type": "Point",
        "coordinates": [34.638932792425599, 31.810519801156307]
      }
    },
    {
      "type": "Feature",
      "properties": {
        "fid": 39,
        "Type": "Gas Station",
        "Name": "Ashdod ha-Rishonim"
      },
      "geometry": {
        "type": "Point",
        "coordinates": [34.649157253056998, 31.81436634591612]
      }
    },
    {
      "type": "Feature",
      "properties": { "fid": 40, "Type": "Parking Lot", "Name": "Giv'at Yona" },
      "geometry": {
        "type": "Point",
        "coordinates": [34.645538551127586, 31.813099203521858]
      }
    },
    {
      "type": "Feature",
      "properties": {
        "fid": 41,
        "Type": "Parking Lot",
        "Name": "Sport Training Ground"
      },
      "geometry": {
        "type": "Point",
        "coordinates": [34.649844029337281, 31.811467955182973]
      }
    },
    {
      "type": "Feature",
      "properties": { "fid": 42, "Type": "Parking Lot", "Name": "Pirate Park" },
      "geometry": {
        "type": "Point",
        "coordinates": [34.640417132291319, 31.81265748430512]
      }
    },
    {
      "type": "Feature",
      "properties": {
        "fid": 43,
        "Type": "Parking Lot",
        "Name": "Super Deal in the City"
      },
      "geometry": {
        "type": "Point",
        "coordinates": [34.644231155915129, 31.807994986842004]
      }
    },
    {
      "type": "Feature",
      "properties": {
        "fid": 44,
        "Type": "Parking Lot",
        "Name": "Last minute minimarket"
      },
      "geometry": {
        "type": "Point",
        "coordinates": [34.647697853461423, 31.804450938703528]
      }
    },
    {
      "type": "Feature",
      "properties": {
        "fid": 45,
        "Type": "Parking Lot",
        "Name": "mercaz khilat tikvateno"
      },
      "geometry": {
        "type": "Point",
        "coordinates": [34.651334932431958, 31.807359812387844]
      }
    },
    {
      "type": "Feature",
      "properties": {
        "fid": 46,
        "Type": "Parking Lot",
        "Name": "Dj StarSpace home studio"
      },
      "geometry": {
        "type": "Point",
        "coordinates": [34.64964109429728, 31.807683758598237]
      }
    },
    {
      "type": "Feature",
      "properties": {
        "fid": 47,
        "Type": "Parking Lot",
        "Name": "Lev Ashdod Mall"
      },
      "geometry": {
        "type": "Point",
        "coordinates": [34.649193744610102, 31.797860901153438]
      }
    },
    {
      "type": "Feature",
      "properties": {
        "fid": 48,
        "Type": "Parking Lot",
        "Name": "HAZOLLIM grocery store"
      },
      "geometry": {
        "type": "Point",
        "coordinates": [34.638468903401403, 31.797143322647102]
      }
    },
    {
      "type": "Feature",
      "properties": {
        "fid": 49,
        "Type": "Parking Lot",
        "Name": "Zalman Super Iod Alef"
      },
      "geometry": {
        "type": "Point",
        "coordinates": [34.645535400777639, 31.802026807338617]
      }
    },
    {
      "type": "Feature",
      "properties": {
        "fid": 50,
        "Type": "Parking Lot",
        "Name": "Dalad Shopping Center"
      },
      "geometry": {
        "type": "Point",
        "coordinates": [34.641565959891622, 31.800875517890443]
      }
    },
    {
      "type": "Feature",
      "properties": {
        "fid": 51,
        "Type": "Parking Lot",
        "Name": "Clouds of Honor Ltd.-Petriya Dahari"
      },
      "geometry": {
        "type": "Point",
        "coordinates": [34.664341808356347, 31.789150123284461]
      }
    },
    {
      "type": "Feature",
      "properties": {
        "fid": 52,
        "Type": "Parking Lot",
        "Name": "Business Center Vav"
      },
      "geometry": {
        "type": "Point",
        "coordinates": [34.653449473544228, 31.792889056541615]
      }
    },
    {
      "type": "Feature",
      "properties": {
        "fid": 53,
        "Type": "Parking Lot",
        "Name": "Esther Minimarket"
      },
      "geometry": {
        "type": "Point",
        "coordinates": [34.646632313236921, 31.794390210506091]
      }
    },
    {
      "type": "Feature",
      "properties": {
        "fid": 54,
        "Type": "Parking Lot",
        "Name": "Unitrade Building"
      },
      "geometry": {
        "type": "Point",
        "coordinates": [34.640999487598748, 31.793532698116653]
      }
    },
    {
      "type": "Feature",
      "properties": { "fid": 55, "Type": "Parking Lot", "Name": "Simol Mall" },
      "geometry": {
        "type": "Point",
        "coordinates": [34.638760770194288, 31.79365218802501]
      }
    },
    {
      "type": "Feature",
      "properties": {
        "fid": 56,
        "Type": "Parking Lot",
        "Name": "LHAV warehouses Ashdod"
      },
      "geometry": {
        "type": "Point",
        "coordinates": [34.630730572029918, 31.766545332991466]
      }
    },
    {
      "type": "Feature",
      "properties": {
        "fid": 57,
        "Type": "Parking Lot",
        "Name": "Yod Zane Shopping Center"
      },
      "geometry": {
        "type": "Point",
        "coordinates": [34.627986814155598, 31.768892610759039]
      }
    },
    {
      "type": "Feature",
      "properties": {
        "fid": 58,
        "Type": "Parking Lot",
        "Name": "Sulam Yaakov Synagogue"
      },
      "geometry": {
        "type": "Point",
        "coordinates": [34.628595225481867, 31.77435228709319]
      }
    },
    {
      "type": "Feature",
      "properties": { "fid": 59, "Type": "Parking Lot", "Name": "Parking Lot" },
      "geometry": {
        "type": "Point",
        "coordinates": [34.637656419409076, 31.780935408646179]
      }
    },
    {
      "type": "Feature",
      "properties": {
        "fid": 60,
        "Type": "Parking Lot",
        "Name": "parking ZTIMER center"
      },
      "geometry": {
        "type": "Point",
        "coordinates": [34.641469917974526, 31.787961407273638]
      }
    },
    {
      "type": "Feature",
      "properties": {
        "fid": 61,
        "Type": "Parking Lot",
        "Name": "Yud Gimel Shopping Center"
      },
      "geometry": {
        "type": "Point",
        "coordinates": [34.641975549134976, 31.775609192333071]
      }
    },
    {
      "type": "Feature",
      "properties": {
        "fid": 62,
        "Type": "Parking Lot",
        "Name": "Tennis Court"
      },
      "geometry": {
        "type": "Point",
        "coordinates": [34.631751876091151, 31.783522833780662]
      }
    },
    {
      "type": "Feature",
      "properties": {
        "fid": 63,
        "Type": "Parking Lot",
        "Name": "White house Vip Ashdod"
      },
      "geometry": {
        "type": "Point",
        "coordinates": [34.62502331937506, 31.778252002092515]
      }
    },
    {
      "type": "Feature",
      "properties": {
        "fid": 64,
        "Type": "Parking Lot",
        "Name": "Medic Pharm Ilona Ltd."
      },
      "geometry": {
        "type": "Point",
        "coordinates": [34.65177156217856, 31.787015466717065]
      }
    },
    {
      "type": "Feature",
      "properties": {
        "fid": 65,
        "Type": "Parking Lot",
        "Name": "Shufersal Sheli Supermarket"
      },
      "geometry": {
        "type": "Point",
        "coordinates": [34.647264592839271, 31.783520825328115]
      }
    },
    {
      "type": "Feature",
      "properties": {
        "fid": 66,
        "Type": "Parking Lot",
        "Name": "Israel Post ROVA TET"
      },
      "geometry": {
        "type": "Point",
        "coordinates": [34.659430456602259, 31.785596203000861]
      }
    },
    {
      "type": "Feature",
      "properties": {
        "fid": 67,
        "Type": "Parking Lot",
        "Name": "Mosdot Khazon Avner"
      },
      "geometry": {
        "type": "Point",
        "coordinates": [34.657789124299399, 31.793636177948557]
      }
    },
    {
      "type": "Feature",
      "properties": {
        "fid": 68,
        "Type": "Parking Lot",
        "Name": "RAK Rami Levy"
      },
      "geometry": {
        "type": "Point",
        "coordinates": [34.633392010939261, 31.76932374718557]
      }
    },
    {
      "type": "Feature",
      "properties": {
        "fid": 69,
        "Type": "Parking Lot",
        "Name": "SHEVET Benjamin Parking"
      },
      "geometry": {
        "type": "Point",
        "coordinates": [34.633695473216257, 31.777465566210342]
      }
    },
    {
      "type": "Feature",
      "properties": {
        "fid": 70,
        "Type": "Parking Lot",
        "Name": "Hannah Szenes Parking"
      },
      "geometry": {
        "type": "Point",
        "coordinates": [34.661557424987436, 31.799835480331001]
      }
    }
  ]
}
